[
  {
    "id": "aed-iyo-001",
    "type": "aed",
    "name": "市役所本庁舎",
    "municipality": "伊予市",
    "lat": 33.75771,
    "lng": 132.703863,
    "address": "愛媛県伊予市米湊820番地",
    "facilityType": "伊予市",
    "availableHours": "月火水木金 08:30-17:15 / 祝日、年末年始（12/29から1/3）は終日利用不可。",
    "indoor": null,
    "verified": false,
    "photo": "",
    "note": "1階受付",
    "sourceUrl": "https://www.city.iyo.lg.jp/shise/opendata/meta001.html",
    "lastChecked": "2026-05-26"
  },
  {
    "id": "aed-iyo-002",
    "type": "aed",
    "name": "おおひら保育所",
    "municipality": "伊予市",
    "lat": 33.716851,
    "lng": 132.707579,
    "address": "愛媛県伊予市大平甲1056番地4",
    "facilityType": "伊予市",
    "availableHours": "月火水木金土 07:00-18:00 / 国民の祝日及び12/29～1/3は終日利用不可。",
    "indoor": null,
    "verified": false,
    "photo": "",
    "note": "玄関",
    "sourceUrl": "https://www.city.iyo.lg.jp/shise/opendata/meta001.html",
    "lastChecked": "2026-05-26"
  },
  {
    "id": "aed-iyo-003",
    "type": "aed",
    "name": "なかむら保育所",
    "municipality": "伊予市",
    "lat": 33.742925,
    "lng": 132.695239,
    "address": "愛媛県伊予市中村5番地",
    "facilityType": "伊予市",
    "availableHours": "月火水木金土 07:00-18:00 / 国民の祝日及び12/29～1/3は終日利用不可。",
    "indoor": null,
    "verified": false,
    "photo": "",
    "note": "玄関",
    "sourceUrl": "https://www.city.iyo.lg.jp/shise/opendata/meta001.html",
    "lastChecked": "2026-05-26"
  },
  {
    "id": "aed-iyo-004",
    "type": "aed",
    "name": "みどり保育所",
    "municipality": "伊予市",
    "lat": 33.750683,
    "lng": 132.71597,
    "address": "愛媛県伊予市上吾川1038番地3",
    "facilityType": "伊予市",
    "availableHours": "月火水木金土 07:00-18:00 / 国民の祝日及び12/29～1/3は終日利用不可。",
    "indoor": null,
    "verified": false,
    "photo": "",
    "note": "職員室",
    "sourceUrl": "https://www.city.iyo.lg.jp/shise/opendata/meta001.html",
    "lastChecked": "2026-05-26"
  },
  {
    "id": "aed-iyo-005",
    "type": "aed",
    "name": "ぐんちゅう保育所",
    "municipality": "伊予市",
    "lat": 33.759249,
    "lng": 132.705832,
    "address": "愛媛県伊予市米湊768番地2",
    "facilityType": "伊予市",
    "availableHours": "月火水木金土 07:00-19:00 / 国民の祝日及び12/29～1/3は終日利用不可。",
    "indoor": null,
    "verified": false,
    "photo": "",
    "note": "職員室",
    "sourceUrl": "https://www.city.iyo.lg.jp/shise/opendata/meta001.html",
    "lastChecked": "2026-05-26"
  },
  {
    "id": "aed-iyo-006",
    "type": "aed",
    "name": "とりのき保育所",
    "municipality": "伊予市",
    "lat": 33.767431,
    "lng": 132.710176,
    "address": "愛媛県伊予市下吾川458番地",
    "facilityType": "伊予市",
    "availableHours": "月火水木金土 07:00-19:00 / 国民の祝日及び12/29～1/3は終日利用不可。",
    "indoor": null,
    "verified": false,
    "photo": "",
    "note": "職員室",
    "sourceUrl": "https://www.city.iyo.lg.jp/shise/opendata/meta001.html",
    "lastChecked": "2026-05-26"
  },
  {
    "id": "aed-iyo-007",
    "type": "aed",
    "name": "うえの保育所",
    "municipality": "伊予市",
    "lat": 33.772948,
    "lng": 132.741553,
    "address": "愛媛県伊予市上野580番地",
    "facilityType": "伊予市",
    "availableHours": "月火水木金土 07:00-19:00 / 国民の祝日及び12/29～1/3は終日利用不可。",
    "indoor": null,
    "verified": false,
    "photo": "",
    "note": "職員室",
    "sourceUrl": "https://www.city.iyo.lg.jp/shise/opendata/meta001.html",
    "lastChecked": "2026-05-26"
  },
  {
    "id": "aed-iyo-008",
    "type": "aed",
    "name": "中山保育所",
    "municipality": "伊予市",
    "lat": 33.640257,
    "lng": 132.707991,
    "address": "愛媛県伊予市中山町中山寅201番地",
    "facilityType": "伊予市",
    "availableHours": "月火水木金土 07:00-18:00 / 国民の祝日及び12/29～1/3は終日利用不可。",
    "indoor": null,
    "verified": false,
    "photo": "",
    "note": "職員室",
    "sourceUrl": "https://www.city.iyo.lg.jp/shise/opendata/meta001.html",
    "lastChecked": "2026-05-26"
  },
  {
    "id": "aed-iyo-009",
    "type": "aed",
    "name": "上灘保育所",
    "municipality": "伊予市",
    "lat": 33.686554,
    "lng": 132.640477,
    "address": "愛媛県伊予市双海町上灘甲5462番地",
    "facilityType": "伊予市",
    "availableHours": "月火水木金土 07:00-18:00 / 国民の祝日及び12/29～1/3は終日利用不可。",
    "indoor": null,
    "verified": false,
    "photo": "",
    "note": "職員室",
    "sourceUrl": "https://www.city.iyo.lg.jp/shise/opendata/meta001.html",
    "lastChecked": "2026-05-26"
  },
  {
    "id": "aed-iyo-010",
    "type": "aed",
    "name": "下灘保育所",
    "municipality": "伊予市",
    "lat": 33.648171,
    "lng": 132.582216,
    "address": "愛媛県伊予市双海町串甲229番地5",
    "facilityType": "伊予市",
    "availableHours": "月火水木金土 07:00-18:00 / 国民の祝日及び12/29～1/3は終日利用不可。",
    "indoor": null,
    "verified": false,
    "photo": "",
    "note": "職員室",
    "sourceUrl": "https://www.city.iyo.lg.jp/shise/opendata/meta001.html",
    "lastChecked": "2026-05-26"
  },
  {
    "id": "aed-iyo-011",
    "type": "aed",
    "name": "児童館あすなろ",
    "municipality": "伊予市",
    "lat": 33.755138,
    "lng": 132.706048,
    "address": "愛媛県伊予市米湊333番地4",
    "facilityType": "伊予市",
    "availableHours": "火水木金土日 09:00-18:00 / 月曜日が祝日と重なる場合は利用可。また、12/29～1/3は終日利用不可。",
    "indoor": null,
    "verified": false,
    "photo": "",
    "note": "ロビー受付",
    "sourceUrl": "https://www.city.iyo.lg.jp/shise/opendata/meta001.html",
    "lastChecked": "2026-05-26"
  },
  {
    "id": "aed-iyo-012",
    "type": "aed",
    "name": "児童センターみんくる",
    "municipality": "伊予市",
    "lat": 33.751991,
    "lng": 132.695936,
    "address": "愛媛県伊予市尾崎3番地1",
    "facilityType": "伊予市",
    "availableHours": "火水木金土日 09:00-18:00 / 月曜日が祝日と重なる場合は利用可。また、12/29～1/3は終日利用不可。",
    "indoor": null,
    "verified": false,
    "photo": "",
    "note": "ロビー受付横",
    "sourceUrl": "https://www.city.iyo.lg.jp/shise/opendata/meta001.html",
    "lastChecked": "2026-05-26"
  },
  {
    "id": "aed-iyo-013",
    "type": "aed",
    "name": "南山崎児童クラブ",
    "municipality": "伊予市",
    "lat": 33.716851,
    "lng": 132.707579,
    "address": "愛媛県伊予市大平甲1056番地4",
    "facilityType": "伊予市",
    "availableHours": "月火水木金土 13:30-18:00 / 国民の祝日及び12/29～1/3は終日利用不可。",
    "indoor": null,
    "verified": false,
    "photo": "",
    "note": "職員室",
    "sourceUrl": "https://www.city.iyo.lg.jp/shise/opendata/meta001.html",
    "lastChecked": "2026-05-26"
  },
  {
    "id": "aed-iyo-014",
    "type": "aed",
    "name": "北山崎児童クラブ",
    "municipality": "伊予市",
    "lat": 33.74212,
    "lng": 132.694925,
    "address": "愛媛県伊予市中村41番地",
    "facilityType": "伊予市",
    "availableHours": "月火水木金土 13:30-18:00 / 国民の祝日及び12/29～1/3は終日利用不可。",
    "indoor": null,
    "verified": false,
    "photo": "",
    "note": "児童クラブ室",
    "sourceUrl": "https://www.city.iyo.lg.jp/shise/opendata/meta001.html",
    "lastChecked": "2026-05-26"
  },
  {
    "id": "aed-iyo-015",
    "type": "aed",
    "name": "郡中放課後児童クラブ",
    "municipality": "伊予市",
    "lat": 33.758249,
    "lng": 132.706259,
    "address": "愛媛県伊予市米湊767番地",
    "facilityType": "伊予市",
    "availableHours": "月火水木金土 13:30-18:00 / 国民の祝日及び12/29～1/3は終日利用不可。",
    "indoor": null,
    "verified": false,
    "photo": "",
    "note": "玄関",
    "sourceUrl": "https://www.city.iyo.lg.jp/shise/opendata/meta001.html",
    "lastChecked": "2026-05-26"
  },
  {
    "id": "aed-iyo-016",
    "type": "aed",
    "name": "南伊予児童クラブ",
    "municipality": "伊予市",
    "lat": 33.77095,
    "lng": 132.741306,
    "address": "愛媛県伊予市上野2270番地",
    "facilityType": "伊予市",
    "availableHours": "月火水木金土 13:30-18:00 / 国民の祝日及び12/29～1/3は終日利用不可。",
    "indoor": null,
    "verified": false,
    "photo": "",
    "note": "玄関",
    "sourceUrl": "https://www.city.iyo.lg.jp/shise/opendata/meta001.html",
    "lastChecked": "2026-05-26"
  },
  {
    "id": "aed-iyo-017",
    "type": "aed",
    "name": "唐川ふれあいプラザ",
    "municipality": "伊予市",
    "lat": 33.721345,
    "lng": 132.727507,
    "address": "愛媛県伊予市下唐川甲335番地1",
    "facilityType": null,
    "availableHours": "月・火・水・木・金 09:00-16:30",
    "indoor": null,
    "verified": false,
    "photo": "",
    "note": "１階玄関",
    "sourceUrl": "https://www.city.iyo.lg.jp/shise/opendata/meta001.html",
    "lastChecked": "2026-05-26"
  },
  {
    "id": "aed-iyo-018",
    "type": "aed",
    "name": "中山老人憩の家",
    "municipality": "伊予市",
    "lat": 33.644254,
    "lng": 132.712404,
    "address": "愛媛県伊予市中山町出渕2番耕地207番地",
    "facilityType": null,
    "availableHours": "月・火・水・木・金 09:00-16:30",
    "indoor": null,
    "verified": false,
    "photo": "",
    "note": "１階玄関",
    "sourceUrl": "https://www.city.iyo.lg.jp/shise/opendata/meta001.html",
    "lastChecked": "2026-05-26"
  },
  {
    "id": "aed-iyo-019",
    "type": "aed",
    "name": "下灘老人憩の家",
    "municipality": "伊予市",
    "lat": 33.652286,
    "lng": 132.579333,
    "address": "愛媛県伊予市双海町串甲3670-16",
    "facilityType": null,
    "availableHours": "月・火・水・木・金 09:00-16:30",
    "indoor": null,
    "verified": false,
    "photo": "",
    "note": "１階ホール付近",
    "sourceUrl": "https://www.city.iyo.lg.jp/shise/opendata/meta001.html",
    "lastChecked": "2026-05-26"
  },
  {
    "id": "aed-iyo-020",
    "type": "aed",
    "name": "伊予市老人デイサービスセンターもものさと",
    "municipality": "伊予市",
    "lat": 33.772948,
    "lng": 132.741553,
    "address": "愛媛県伊予市上野580番地",
    "facilityType": null,
    "availableHours": "月・火・水・木・金 09:00-16:30",
    "indoor": null,
    "verified": false,
    "photo": "",
    "note": "１階玄関",
    "sourceUrl": "https://www.city.iyo.lg.jp/shise/opendata/meta001.html",
    "lastChecked": "2026-05-26"
  },
  {
    "id": "aed-iyo-021",
    "type": "aed",
    "name": "ぐんちゅうふれあい館",
    "municipality": "伊予市",
    "lat": 33.763787,
    "lng": 132.705123,
    "address": "愛媛県伊予市下吾川1447番地1",
    "facilityType": null,
    "availableHours": "月・火・水・木・金・土 09:00-17:00",
    "indoor": null,
    "verified": false,
    "photo": "",
    "note": "デイサービスセンターじゅらく併設",
    "sourceUrl": "https://www.city.iyo.lg.jp/shise/opendata/meta001.html",
    "lastChecked": "2026-05-26"
  },
  {
    "id": "aed-iyo-022",
    "type": "aed",
    "name": "上吾川ふれあい館",
    "municipality": "伊予市",
    "lat": 33.758202,
    "lng": 132.709406,
    "address": "愛媛県伊予市上吾川甲1212-1",
    "facilityType": null,
    "availableHours": "毎日 09:00-17:00",
    "indoor": null,
    "verified": false,
    "photo": "",
    "note": "1階和室",
    "sourceUrl": "https://www.city.iyo.lg.jp/shise/opendata/meta001.html",
    "lastChecked": "2026-05-26"
  },
  {
    "id": "aed-iyo-023",
    "type": "aed",
    "name": "永木ふれあい館",
    "municipality": "伊予市",
    "lat": 33.636587,
    "lng": 132.668243,
    "address": "愛媛県伊予市中山町中山午987",
    "facilityType": null,
    "availableHours": "火・水・木・金・土 09:00-17:00",
    "indoor": null,
    "verified": false,
    "photo": "",
    "note": "１階玄関",
    "sourceUrl": "https://www.city.iyo.lg.jp/shise/opendata/meta001.html",
    "lastChecked": "2026-05-26"
  },
  {
    "id": "aed-iyo-024",
    "type": "aed",
    "name": "伊予市国民健康保険直営中山歯科診療所",
    "municipality": "伊予市",
    "lat": 33.6431149,
    "lng": 132.709102,
    "address": "愛媛県伊予市中山町中山丑352番地１",
    "facilityType": "伊予市",
    "availableHours": "月火水木金 09:00-18:00 / 祝日、12/31、1/１～1/３は終日利用不可。",
    "indoor": null,
    "verified": false,
    "photo": "",
    "note": "１階受付",
    "sourceUrl": "https://www.city.iyo.lg.jp/shise/opendata/meta001.html",
    "lastChecked": "2026-05-26"
  },
  {
    "id": "aed-iyo-025",
    "type": "aed",
    "name": "彩浜館",
    "municipality": "伊予市",
    "lat": 33.754785,
    "lng": 132.697722,
    "address": "伊予市灘町311番地",
    "facilityType": "伊予市",
    "availableHours": "月、火、水、木、金、土、日 08:30-17:00 / 開館日は、年末年始（12月28日から翌年１月４日まで）の休館日を除く日\n申請により22時まで利用可能",
    "indoor": null,
    "verified": false,
    "photo": "",
    "note": "事務室",
    "sourceUrl": "https://www.city.iyo.lg.jp/shise/opendata/meta001.html",
    "lastChecked": "2026-05-26"
  },
  {
    "id": "aed-iyo-026",
    "type": "aed",
    "name": "生涯研修センター「さざなみ館」",
    "municipality": "伊予市",
    "lat": 33.762651,
    "lng": 132.700368,
    "address": "伊予市湊町206番地9",
    "facilityType": "伊予市",
    "availableHours": "月、火、水、木、金、土、日 08:30-17:00 / 休館日は、12月29日から翌年の１月３日まで\n申請により22時まで利用可能",
    "indoor": null,
    "verified": false,
    "photo": "",
    "note": "事務室",
    "sourceUrl": "https://www.city.iyo.lg.jp/shise/opendata/meta001.html",
    "lastChecked": "2026-05-26"
  },
  {
    "id": "aed-iyo-027",
    "type": "aed",
    "name": "なかやまウッドクラフトセンター「クラフトの里」",
    "municipality": "伊予市",
    "lat": 33.669946,
    "lng": 132.694818,
    "address": "伊予市中山町中山子271番地",
    "facilityType": "㈱プロシーズ",
    "availableHours": "月、火、水、木、金、土、日 08:00-17:00 / 休館日は、毎月の第３月曜日（月曜日が、国民の祝日に関する法律（昭和23年法律第178号）に規定する休日（以下「休日」という。）に当たるときは、当該休日の直後の休日でない日）及び12月29日から翌年の１月３日まで",
    "indoor": null,
    "verified": false,
    "photo": "",
    "note": "売店",
    "sourceUrl": "https://www.city.iyo.lg.jp/shise/opendata/meta001.html",
    "lastChecked": "2026-05-26"
  },
  {
    "id": "aed-iyo-028",
    "type": "aed",
    "name": "ふたみシーサイド公園",
    "municipality": "伊予市",
    "lat": 33.68523,
    "lng": 132.63424,
    "address": "伊予市双海町高岸甲2326番地",
    "facilityType": "㈲シーサイドふたみ",
    "availableHours": "月、火、水、木、金、土、日 10:00-18:00 / 休館日は、12月30日から翌年の１月３日まで",
    "indoor": null,
    "verified": false,
    "photo": "",
    "note": "特産品センター\n入口",
    "sourceUrl": "https://www.city.iyo.lg.jp/shise/opendata/meta001.html",
    "lastChecked": "2026-05-26"
  },
  {
    "id": "aed-iyo-029",
    "type": "aed",
    "name": "なかやま交流促進センター「花の森ホテル」",
    "municipality": "伊予市",
    "lat": 33.632708,
    "lng": 132.706449,
    "address": "伊予市中山町中山11号405番地2",
    "facilityType": "山陽物産㈱",
    "availableHours": "無休",
    "indoor": null,
    "verified": false,
    "photo": "",
    "note": "浴室前",
    "sourceUrl": "https://www.city.iyo.lg.jp/shise/opendata/meta001.html",
    "lastChecked": "2026-05-26"
  },
  {
    "id": "aed-iyo-030",
    "type": "aed",
    "name": "ＪＲ伊予市駅前街の交流拠点「町家」",
    "municipality": "伊予市",
    "lat": 33.755927,
    "lng": 132.702568,
    "address": "伊予市米湊827番地4",
    "facilityType": "㈱まちづくり郡中",
    "availableHours": "月、火、水、木、金、土、日 08:30-19:00 / 定休日は、1月1日から1月4日",
    "indoor": null,
    "verified": false,
    "photo": "",
    "note": "１階案内所",
    "sourceUrl": "https://www.city.iyo.lg.jp/shise/opendata/meta001.html",
    "lastChecked": "2026-05-26"
  },
  {
    "id": "aed-iyo-031",
    "type": "aed",
    "name": "なかやま特産品センター",
    "municipality": "伊予市",
    "lat": 33.649077,
    "lng": 132.711861,
    "address": "伊予市中山町中山丑173番地2",
    "facilityType": "㈱プロシーズ",
    "availableHours": "月、火、水、木、金、土、日 08:00-17:00 / 休館日は、12月29日から翌年の１月３日まで",
    "indoor": null,
    "verified": false,
    "photo": "",
    "note": "売店",
    "sourceUrl": "https://www.city.iyo.lg.jp/shise/opendata/meta001.html",
    "lastChecked": "2026-05-26"
  },
  {
    "id": "aed-iyo-032",
    "type": "aed",
    "name": "なかやま地域資源活用工房施設「遊栗館」",
    "municipality": "伊予市",
    "lat": 33.631805,
    "lng": 132.707102,
    "address": "伊予市中山町中山戌700番地1",
    "facilityType": "山陽物産㈱",
    "availableHours": "月、火、水、金、土、日 11:00-14:00 / 休館日は、毎週木曜日及び12月29日から翌年の１月３日までの日",
    "indoor": null,
    "verified": false,
    "photo": "",
    "note": "玄関ホール",
    "sourceUrl": "https://www.city.iyo.lg.jp/shise/opendata/meta001.html",
    "lastChecked": "2026-05-26"
  },
  {
    "id": "aed-iyo-033",
    "type": "aed",
    "name": "秦皇山休養施設",
    "municipality": "伊予市",
    "lat": 33.665851,
    "lng": 132.727025,
    "address": "伊予市中山町出渕6番耕地1210番地3",
    "facilityType": "伊予市",
    "availableHours": "月、火、水、木、金、土、日 08:30-17:00 / 4月から11月上旬まで\n（管理人不在時はＡＥＤ使用不可）",
    "indoor": null,
    "verified": false,
    "photo": "",
    "note": "管理棟",
    "sourceUrl": "https://www.city.iyo.lg.jp/shise/opendata/meta001.html",
    "lastChecked": "2026-05-26"
  },
  {
    "id": "aed-iyo-034",
    "type": "aed",
    "name": "五色姫海浜公園",
    "municipality": "伊予市",
    "lat": 33.755374,
    "lng": 132.693687,
    "address": "伊予市尾崎地先",
    "facilityType": "伊予市",
    "availableHours": "月火水木金土日 08:30-18:30 / 海開き～8/31の期間のみ",
    "indoor": null,
    "verified": false,
    "photo": "",
    "note": "管理事務所",
    "sourceUrl": "https://www.city.iyo.lg.jp/shise/opendata/meta001.html",
    "lastChecked": "2026-05-26"
  },
  {
    "id": "aed-iyo-035",
    "type": "aed",
    "name": "五色浜公園プール",
    "municipality": "伊予市",
    "lat": 33.754785,
    "lng": 132.697722,
    "address": "伊予市灘町311番地",
    "facilityType": "伊予市",
    "availableHours": "月火水木金土日 08:30-17:00 / 7/1～8/31の期間のみ",
    "indoor": null,
    "verified": false,
    "photo": "",
    "note": "事務所",
    "sourceUrl": "https://www.city.iyo.lg.jp/shise/opendata/meta001.html",
    "lastChecked": "2026-05-26"
  },
  {
    "id": "aed-iyo-036",
    "type": "aed",
    "name": "ウェルピア伊予",
    "municipality": "伊予市",
    "lat": 33770121,
    "lng": 132.717617,
    "address": "伊予市下三谷1791番地1",
    "facilityType": "伊予市",
    "availableHours": "基本無休",
    "indoor": null,
    "verified": false,
    "photo": "",
    "note": "事務所",
    "sourceUrl": "https://www.city.iyo.lg.jp/shise/opendata/meta001.html",
    "lastChecked": "2026-05-26"
  },
  {
    "id": "aed-iyo-037",
    "type": "aed",
    "name": "しおさい公園伊予市民体育館",
    "municipality": "伊予市",
    "lat": 33.743813,
    "lng": 132.681678,
    "address": "伊予市森甲91番地1",
    "facilityType": "伊予市",
    "availableHours": "月火水木金土日 08:00-21:40 / 毎週月曜、年末年始12/28～1/4を除く",
    "indoor": null,
    "verified": false,
    "photo": "",
    "note": "事務所",
    "sourceUrl": "https://www.city.iyo.lg.jp/shise/opendata/meta001.html",
    "lastChecked": "2026-05-26"
  },
  {
    "id": "aed-iyo-038",
    "type": "aed",
    "name": "ふたみ潮風ふれあい公園潮風ふれあいの館",
    "municipality": "伊予市",
    "lat": 33.681031,
    "lng": 132.634926,
    "address": "伊予市双海町高岸甲869番地2",
    "facilityType": "伊予市",
    "availableHours": "月火水木金土日 08:30-22:00 / 毎週火曜、年末年始12/28～1/4を除く",
    "indoor": null,
    "verified": false,
    "photo": "",
    "note": "事務所",
    "sourceUrl": "https://www.city.iyo.lg.jp/shise/opendata/meta001.html",
    "lastChecked": "2026-05-26"
  },
  {
    "id": "aed-iyo-039",
    "type": "aed",
    "name": "伊予市学校給食センター",
    "municipality": "伊予市",
    "lat": 33.714027,
    "lng": 132.707686,
    "address": "愛媛県伊予市大平甲911-2",
    "facilityType": "伊予市",
    "availableHours": "月火水木金 08:00-17:15 / 祝祭日、年末年始（12/29～1/3）は終日利用不可",
    "indoor": null,
    "verified": false,
    "photo": "",
    "note": "１階ロビー",
    "sourceUrl": "https://www.city.iyo.lg.jp/shise/opendata/meta001.html",
    "lastChecked": "2026-05-26"
  },
  {
    "id": "aed-iyo-040",
    "type": "aed",
    "name": "伊予市立伊予小学校",
    "municipality": "伊予市",
    "lat": 33.464,
    "lng": 132.4437,
    "address": "愛媛県伊予市上野2,270番地",
    "facilityType": "伊予市",
    "availableHours": "月火水木金土日 00:00-23:59 / 休日等窓ガラスを割って使用可",
    "indoor": null,
    "verified": false,
    "photo": "",
    "note": "南校舎1階保健室前廊下",
    "sourceUrl": "https://www.city.iyo.lg.jp/shise/opendata/meta001.html",
    "lastChecked": "2026-05-26"
  },
  {
    "id": "aed-iyo-041",
    "type": "aed",
    "name": "伊予市立下灘小学校",
    "municipality": "伊予市",
    "lat": 33.65121,
    "lng": 132.57991,
    "address": "愛媛県伊予市双海町串甲１１０番地３",
    "facilityType": "伊予市",
    "availableHours": "月火水木金 08:00-16:30 / 土日、祝日と閉庁日と１２月２９日～１月３日は利用不可",
    "indoor": null,
    "verified": false,
    "photo": "",
    "note": "校舎１階玄関",
    "sourceUrl": "https://www.city.iyo.lg.jp/shise/opendata/meta001.html",
    "lastChecked": "2026-05-26"
  },
  {
    "id": "aed-iyo-042",
    "type": "aed",
    "name": "伊予市立下灘小学校",
    "municipality": "伊予市",
    "lat": 33.651134,
    "lng": 132.579824,
    "address": "愛媛県伊予市双海町串甲１１０番地３",
    "facilityType": "伊予市",
    "availableHours": "月火水木金 08:00-16:30 / 土日、祝日と閉庁日と１２月２９日～１月３日は利用不可",
    "indoor": null,
    "verified": false,
    "photo": "",
    "note": "体育館",
    "sourceUrl": "https://www.city.iyo.lg.jp/shise/opendata/meta001.html",
    "lastChecked": "2026-05-26"
  },
  {
    "id": "aed-iyo-043",
    "type": "aed",
    "name": "郡中小学校",
    "municipality": "伊予市",
    "lat": 33.756222,
    "lng": 132.708946,
    "address": "伊予市上吾川１１０",
    "facilityType": "伊予市",
    "availableHours": "閉校日以外 08:00-16:30",
    "indoor": null,
    "verified": false,
    "photo": "",
    "note": "職員室",
    "sourceUrl": "https://www.city.iyo.lg.jp/shise/opendata/meta001.html",
    "lastChecked": "2026-05-26"
  },
  {
    "id": "aed-iyo-044",
    "type": "aed",
    "name": "佐礼谷小学校",
    "municipality": "伊予市",
    "lat": 33.682886,
    "lng": 132.719469,
    "address": "愛媛県伊予市中山町佐礼谷甲827-2",
    "facilityType": "伊予市",
    "availableHours": "月火水木金 08:00-16:30 / 緊急の際は施錠時、休祭日も廊下窓を破り利用するよう表示",
    "indoor": null,
    "verified": false,
    "photo": "",
    "note": "1F玄関奥廊下",
    "sourceUrl": "https://www.city.iyo.lg.jp/shise/opendata/meta001.html",
    "lastChecked": "2026-05-26"
  },
  {
    "id": "aed-iyo-045",
    "type": "aed",
    "name": "翠小学校",
    "municipality": "伊予市",
    "lat": 33.680061,
    "lng": 132.6676,
    "address": "伊予市双海町上灘甲４５２番地１",
    "facilityType": "伊予市",
    "availableHours": "毎日 00:00-00:00 / 学校に職員がいない時間帯でも使用可能",
    "indoor": null,
    "verified": false,
    "photo": "",
    "note": "１階廊下",
    "sourceUrl": "https://www.city.iyo.lg.jp/shise/opendata/meta001.html",
    "lastChecked": "2026-05-26"
  },
  {
    "id": "aed-iyo-046",
    "type": "aed",
    "name": "伊予市立中山小学校",
    "municipality": "伊予市",
    "lat": 33.643113,
    "lng": 132.711439,
    "address": "愛媛県伊予市中山町出渕2番耕地１４３番地",
    "facilityType": "伊予市",
    "availableHours": "月火水木金 08:00-16:30 / 祝日は利用不可",
    "indoor": null,
    "verified": false,
    "photo": "",
    "note": "1階玄関",
    "sourceUrl": "https://www.city.iyo.lg.jp/shise/opendata/meta001.html",
    "lastChecked": "2026-05-26"
  },
  {
    "id": "aed-iyo-047",
    "type": "aed",
    "name": "伊予市立南山崎小学校",
    "municipality": "伊予市",
    "lat": 33.715126,
    "lng": 132.706976,
    "address": "愛媛県伊予市大平甲９４２番地",
    "facilityType": "伊予市",
    "availableHours": "月火水木金土日 08:00-16:30 / 土日祝祭日は窓ガラスを割って使用することに申し合わせ",
    "indoor": null,
    "verified": false,
    "photo": "",
    "note": "1階運動場側玄関",
    "sourceUrl": "https://www.city.iyo.lg.jp/shise/opendata/meta001.html",
    "lastChecked": "2026-05-26"
  },
  {
    "id": "aed-iyo-048",
    "type": "aed",
    "name": "伊予市立北山崎小学校",
    "municipality": "伊予市",
    "lat": 33.742448,
    "lng": 132.695194,
    "address": "伊予市中村４１番地",
    "facilityType": "伊予市",
    "availableHours": "月火水木金 08:00-16:30",
    "indoor": null,
    "verified": false,
    "photo": "",
    "note": "北校舎１階廊下保健室前",
    "sourceUrl": "https://www.city.iyo.lg.jp/shise/opendata/meta001.html",
    "lastChecked": "2026-05-26"
  },
  {
    "id": "aed-iyo-049",
    "type": "aed",
    "name": "由並小学校",
    "municipality": "伊予市",
    "lat": 33.685621,
    "lng": 132.636111,
    "address": "愛媛県伊予市双海町髙岸甲867番地",
    "facilityType": "伊予市",
    "availableHours": "月火水木金 08:00-16:30 / 祝祭日、8/13～15、12/28～1/3は利用不可",
    "indoor": null,
    "verified": false,
    "photo": "",
    "note": "１階職員室前",
    "sourceUrl": "https://www.city.iyo.lg.jp/shise/opendata/meta001.html",
    "lastChecked": "2026-05-26"
  },
  {
    "id": "aed-iyo-054",
    "type": "aed",
    "name": "伊予市立中山中学校",
    "municipality": "伊予市",
    "lat": 33.640474,
    "lng": 132.710135,
    "address": "愛媛県伊予市中山町出渕２番耕地165番地",
    "facilityType": "伊予市",
    "availableHours": "月火水木金 08:00-16:30 / 原則として「伊予市立学校管理規則」に定めるところの「学校の休業日」以外の期間で、左記の曜日とする。ただし、休業日のうち長期休業中に教職員が勤務しなければならない日は利用可である。",
    "indoor": null,
    "verified": false,
    "photo": "",
    "note": "校舎１階　玄関東側",
    "sourceUrl": "https://www.city.iyo.lg.jp/shise/opendata/meta001.html",
    "lastChecked": "2026-05-26"
  },
  {
    "id": "aed-iyo-055",
    "type": "aed",
    "name": "双海中学校",
    "municipality": "伊予市",
    "lat": 33.685977,
    "lng": 132.646863,
    "address": "愛媛県伊予市双海町上灘甲5286-1",
    "facilityType": "伊予市",
    "availableHours": "月～金 07:00-20:00 / それ以外でも教員がいれば利用可能",
    "indoor": null,
    "verified": false,
    "photo": "",
    "note": "職員室前",
    "sourceUrl": "https://www.city.iyo.lg.jp/shise/opendata/meta001.html",
    "lastChecked": "2026-05-26"
  },
  {
    "id": "aed-iyo-056",
    "type": "aed",
    "name": "伊予市立からたち幼稚園",
    "municipality": "伊予市",
    "lat": 33.754769,
    "lng": 132.706143,
    "address": "愛媛県伊予市米湊333",
    "facilityType": "伊予市",
    "availableHours": "月火水木金 08:00-17:15 / 祝日及び8月13,14,15日。12月28～1月3日利用不可",
    "indoor": null,
    "verified": false,
    "photo": "",
    "note": "１階職員室",
    "sourceUrl": "https://www.city.iyo.lg.jp/shise/opendata/meta001.html",
    "lastChecked": "2026-05-26"
  },
  {
    "id": "aed-iyo-057",
    "type": "aed",
    "name": "伊予市立伊予幼稚園",
    "municipality": "伊予市",
    "lat": 33.77317,
    "lng": 132.74417,
    "address": "伊予市上野811番地-2",
    "facilityType": "伊予市",
    "availableHours": "月～金 08:00-17:15 / 祝日、12／29～1／3利用不可",
    "indoor": null,
    "verified": false,
    "photo": "",
    "note": "職員室",
    "sourceUrl": "https://www.city.iyo.lg.jp/shise/opendata/meta001.html",
    "lastChecked": "2026-05-26"
  },
  {
    "id": "aed-iyo-058",
    "type": "aed",
    "name": "中山幼稚園",
    "municipality": "伊予市",
    "lat": 33.639281,
    "lng": 132.709022,
    "address": "愛媛県伊予市中山町出渕2番耕地21番地2",
    "facilityType": "伊予市",
    "availableHours": "月火水木金 08:00-17:00",
    "indoor": null,
    "verified": false,
    "photo": "",
    "note": "職員室横廊下",
    "sourceUrl": "https://www.city.iyo.lg.jp/shise/opendata/meta001.html",
    "lastChecked": "2026-05-26"
  },
  {
    "id": "aed-iyo-059",
    "type": "aed",
    "name": "北山崎幼稚園",
    "municipality": "伊予市",
    "lat": 33.74266,
    "lng": 132.694633,
    "address": "愛媛県伊予市中村７－１",
    "facilityType": "伊予市",
    "availableHours": "月曜日～金曜日 08:15-17:00 / ８月１３日～８月１５日お盆　　　　　　　　　１２月２９日～１月３日年末年始",
    "indoor": null,
    "verified": false,
    "photo": "",
    "note": "職員室",
    "sourceUrl": "https://www.city.iyo.lg.jp/shise/opendata/meta001.html",
    "lastChecked": "2026-05-26"
  },
  {
    "id": "aed-iyo-060",
    "type": "aed",
    "name": "上野地区公民館",
    "municipality": "伊予市",
    "lat": 33.771727,
    "lng": 132.74094,
    "address": "愛媛県伊予市上野611番地",
    "facilityType": "伊予市",
    "availableHours": "月火水木金 07:30-22:00 / 土日祝日は貸出時間中のみ利用可。\n12/29～1/3は終日利用不可。",
    "indoor": null,
    "verified": false,
    "photo": "",
    "note": "2階玄関ロビー",
    "sourceUrl": "https://www.city.iyo.lg.jp/shise/opendata/meta001.html",
    "lastChecked": "2026-05-26"
  },
  {
    "id": "aed-iyo-061",
    "type": "aed",
    "name": "中村地区公民館",
    "municipality": "伊予市",
    "lat": 33.743045,
    "lng": 132.69469,
    "address": "愛媛県伊予市中村６番地",
    "facilityType": "伊予市",
    "availableHours": "月火水木金 07:30-22:00 / 土日祝日は貸出時間中のみ利用可。\n12/29～1/3は終日利用不可。",
    "indoor": null,
    "verified": false,
    "photo": "",
    "note": "１階ロビー",
    "sourceUrl": "https://www.city.iyo.lg.jp/shise/opendata/meta001.html",
    "lastChecked": "2026-05-26"
  },
  {
    "id": "aed-iyo-062",
    "type": "aed",
    "name": "緑風館",
    "municipality": "伊予市",
    "lat": 33.71712,
    "lng": 132.70708,
    "address": "愛媛県伊予市大平甲1064番地2",
    "facilityType": "伊予市",
    "availableHours": "貸出時間中のみ利用可。",
    "indoor": null,
    "verified": false,
    "photo": "",
    "note": "玄関ホール",
    "sourceUrl": "https://www.city.iyo.lg.jp/shise/opendata/meta001.html",
    "lastChecked": "2026-05-26"
  },
  {
    "id": "aed-iyo-063",
    "type": "aed",
    "name": "大平地区公民館",
    "municipality": "伊予市",
    "lat": 33.717236,
    "lng": 132.7077,
    "address": "愛媛県伊予市大平甲1057番地3",
    "facilityType": "伊予市",
    "availableHours": "月火水木金 07:30-22:00 / 土日祝日は貸出時間中のみ利用可。\n12/29～1/3は終日利用不可。",
    "indoor": null,
    "verified": false,
    "photo": "",
    "note": "１階ロビー",
    "sourceUrl": "https://www.city.iyo.lg.jp/shise/opendata/meta001.html",
    "lastChecked": "2026-05-26"
  },
  {
    "id": "aed-iyo-064",
    "type": "aed",
    "name": "伊予市立図書館",
    "municipality": "伊予市",
    "lat": 33.759173,
    "lng": 132.70587,
    "address": "愛媛県伊予市米湊768番地2",
    "facilityType": "伊予市",
    "availableHours": "火水木金 09:00-18:00 / 土日の利用可能時間は9～17時。\n月曜日、祝日、月末最終の平日、12/29～1/3、特別整理期間（3月中10日以内で館長が定める）は終日利用不可。",
    "indoor": null,
    "verified": false,
    "photo": "",
    "note": "玄関ホール",
    "sourceUrl": "https://www.city.iyo.lg.jp/shise/opendata/meta001.html",
    "lastChecked": "2026-05-26"
  },
  {
    "id": "aed-iyo-065",
    "type": "aed",
    "name": "長沢体育館",
    "municipality": "伊予市",
    "lat": 33.671291,
    "lng": 132.69946,
    "address": "愛媛県伊予市中山町佐礼谷甲125番地",
    "facilityType": "伊予市",
    "availableHours": "貸出時間中のみ利用可。",
    "indoor": null,
    "verified": false,
    "photo": "",
    "note": "玄関ホール",
    "sourceUrl": "https://www.city.iyo.lg.jp/shise/opendata/meta001.html",
    "lastChecked": "2026-05-26"
  },
  {
    "id": "aed-iyo-066",
    "type": "aed",
    "name": "佐礼谷生活改善センター",
    "municipality": "伊予市",
    "lat": 33.682326,
    "lng": 132.72078,
    "address": "愛媛県伊予市中山町佐礼谷甲1122番地",
    "facilityType": "伊予市",
    "availableHours": "貸出時間中のみ利用可。",
    "indoor": null,
    "verified": false,
    "photo": "",
    "note": "玄関ロビー",
    "sourceUrl": "https://www.city.iyo.lg.jp/shise/opendata/meta001.html",
    "lastChecked": "2026-05-26"
  },
  {
    "id": "aed-iyo-067",
    "type": "aed",
    "name": "郡中地区公民館",
    "municipality": "伊予市",
    "lat": 33.757917,
    "lng": 132.6992,
    "address": "愛媛県伊予市灘町359番地3",
    "facilityType": "伊予市",
    "availableHours": "月火水木金 07:30-22:00 / 土日祝日は貸出時間中のみ利用可。\n12/29～1/3は終日利用不可。",
    "indoor": null,
    "verified": false,
    "photo": "",
    "note": "１階ロビー",
    "sourceUrl": "https://www.city.iyo.lg.jp/shise/opendata/meta001.html",
    "lastChecked": "2026-05-26"
  },
  {
    "id": "aed-iyo-068",
    "type": "aed",
    "name": "双海地区公民館",
    "municipality": "伊予市",
    "lat": 33.687206,
    "lng": 132.63871,
    "address": "愛媛県伊予市双海町上灘甲5821番地6",
    "facilityType": "伊予市",
    "availableHours": "月火水木金 08:30-17:15 / 土日祝日、12/29～1/3は終日利用不可。",
    "indoor": null,
    "verified": false,
    "photo": "",
    "note": "1階事務室内",
    "sourceUrl": "https://www.city.iyo.lg.jp/shise/opendata/meta001.html",
    "lastChecked": "2026-05-26"
  },
  {
    "id": "aed-iyo-069",
    "type": "aed",
    "name": "中山地域事務所",
    "municipality": "伊予市",
    "lat": 33.383303,
    "lng": 132.423919,
    "address": "愛媛県伊予市中山町出淵2-138-1",
    "facilityType": "伊予市",
    "availableHours": "月火水木金土日 08:30-22:00",
    "indoor": null,
    "verified": false,
    "photo": "",
    "note": "1階エントランスホール",
    "sourceUrl": "https://www.city.iyo.lg.jp/shise/opendata/meta001.html",
    "lastChecked": "2026-05-26"
  },
  {
    "id": "aed-iyo-070",
    "type": "aed",
    "name": "野中デイサービス",
    "municipality": "伊予市",
    "lat": 33.65552,
    "lng": 132.746644,
    "address": "愛媛県伊予市中山町出淵3-21",
    "facilityType": "伊予市",
    "availableHours": "月火水木金土日 00:00-23:59",
    "indoor": null,
    "verified": false,
    "photo": "",
    "note": "玄関",
    "sourceUrl": "https://www.city.iyo.lg.jp/shise/opendata/meta001.html",
    "lastChecked": "2026-05-26"
  },
  {
    "id": "aed-iyo-071",
    "type": "aed",
    "name": "双海地域事務所",
    "municipality": "伊予市",
    "lat": 33.687206,
    "lng": 132.63871,
    "address": "愛媛県伊予市双海町上灘甲5821番地6",
    "facilityType": "伊予市",
    "availableHours": "月火水木金土日 08:30-22:00",
    "indoor": null,
    "verified": false,
    "photo": "",
    "note": "1階事務室内",
    "sourceUrl": "https://www.city.iyo.lg.jp/shise/opendata/meta001.html",
    "lastChecked": "2026-05-26"
  },
  {
    "id": "aed-iyo-072",
    "type": "aed",
    "name": "下灘コミュニティセンター",
    "municipality": "伊予市",
    "lat": 33.652087,
    "lng": 132.579268,
    "address": "愛媛県伊予市双海町串甲3670番地16",
    "facilityType": "伊予市",
    "availableHours": "月火水木金土日 08:30-22:00",
    "indoor": null,
    "verified": false,
    "photo": "",
    "note": "１階ロビー",
    "sourceUrl": "https://www.city.iyo.lg.jp/shise/opendata/meta001.html",
    "lastChecked": "2026-05-26"
  },
  {
    "id": "aed-iyo-073",
    "type": "aed",
    "name": "伊予市ﾎﾞﾗﾝﾃｨｱｾﾝﾀｰ",
    "municipality": "伊予市",
    "lat": 33.751991,
    "lng": 132.695936,
    "address": "伊予市尾崎3-1",
    "facilityType": "伊予市",
    "availableHours": "月火水木金 08:30-17:15",
    "indoor": null,
    "verified": false,
    "photo": "",
    "note": "２階ロビー",
    "sourceUrl": "https://www.city.iyo.lg.jp/shise/opendata/meta001.html",
    "lastChecked": "2026-05-26"
  },
  {
    "id": "aed-iyo-074",
    "type": "aed",
    "name": "伊予市地域活動支援センターくりのみ",
    "municipality": "伊予市",
    "lat": 33.642699,
    "lng": 132.710733,
    "address": "伊予市中山町出淵2番耕地120番地１",
    "facilityType": "伊予市",
    "availableHours": "月火水木金 09:00-17:00 / 臨時休館日は利用不可",
    "indoor": null,
    "verified": false,
    "photo": "",
    "note": "玄関",
    "sourceUrl": "https://www.city.iyo.lg.jp/shise/opendata/meta001.html",
    "lastChecked": "2026-05-26"
  }
]
