[
  {
    "id": "aed-tobe-001",
    "type": "aed",
    "name": "陶街道ゆとり公園",
    "municipality": "砥部町",
    "lat": 33.744061,
    "lng": 132.799393,
    "address": "愛媛県伊予郡砥部町千足400番地",
    "facilityType": "公共施設",
    "availableHours": "利用時間不明",
    "indoor": true,
    "verified": false,
    "photo": "",
    "note": "体育館玄関",
    "sourceUrl": "https://www.town.tobe.ehime.jp/soshikikarasagasu/soumuka/bousai/642.html",
    "lastChecked": "2026-05-27"
  },
  {
    "id": "aed-tobe-002",
    "type": "aed",
    "name": "道の駅ひろた峡の館",
    "municipality": "砥部町",
    "lat": 33.635242,
    "lng": 132.791199,
    "address": "愛媛県伊予郡砥部町総津162番地",
    "facilityType": "公共施設",
    "availableHours": "利用時間不明",
    "indoor": true,
    "verified": false,
    "photo": "",
    "note": "1階店内",
    "sourceUrl": "https://www.town.tobe.ehime.jp/soshikikarasagasu/soumuka/bousai/642.html",
    "lastChecked": "2026-05-27"
  },
  {
    "id": "aed-tobe-003",
    "type": "aed",
    "name": "麻生小学校",
    "municipality": "砥部町",
    "lat": 33.779324,
    "lng": 132.791641,
    "address": "愛媛県伊予郡砥部町高尾田760番地",
    "facilityType": "学校",
    "availableHours": "利用時間不明",
    "indoor": true,
    "verified": false,
    "photo": "",
    "note": "体育館玄関、職員室",
    "sourceUrl": "https://www.town.tobe.ehime.jp/soshikikarasagasu/soumuka/bousai/642.html",
    "lastChecked": "2026-05-27"
  },
  {
    "id": "aed-tobe-004",
    "type": "aed",
    "name": "宮内小学校",
    "municipality": "砥部町",
    "lat": 33.751183,
    "lng": 132.795074,
    "address": "愛媛県伊予郡砥部町宮内640番地",
    "facilityType": "学校",
    "availableHours": "利用時間不明",
    "indoor": true,
    "verified": false,
    "photo": "",
    "note": "体育館玄関、保健室",
    "sourceUrl": "https://www.town.tobe.ehime.jp/soshikikarasagasu/soumuka/bousai/642.html",
    "lastChecked": "2026-05-27"
  },
  {
    "id": "aed-tobe-005",
    "type": "aed",
    "name": "砥部小学校",
    "municipality": "砥部町",
    "lat": 33.727814,
    "lng": 132.78952,
    "address": "愛媛県伊予郡砥部町大南1039番地",
    "facilityType": "学校",
    "availableHours": "利用時間不明",
    "indoor": true,
    "verified": false,
    "photo": "",
    "note": "体育館東側入口、保健室",
    "sourceUrl": "https://www.town.tobe.ehime.jp/soshikikarasagasu/soumuka/bousai/642.html",
    "lastChecked": "2026-05-27"
  },
  {
    "id": "aed-tobe-006",
    "type": "aed",
    "name": "広田小学校",
    "municipality": "砥部町",
    "lat": 33.635242,
    "lng": 132.791199,
    "address": "愛媛県伊予郡砥部町総津375番地",
    "facilityType": "学校",
    "availableHours": "利用時間不明",
    "indoor": true,
    "verified": false,
    "photo": "",
    "note": "体育館玄関",
    "sourceUrl": "https://www.town.tobe.ehime.jp/soshikikarasagasu/soumuka/bousai/642.html",
    "lastChecked": "2026-05-27"
  },
  {
    "id": "aed-tobe-007",
    "type": "aed",
    "name": "旧高市小学校",
    "municipality": "砥部町",
    "lat": 33.627712,
    "lng": 132.76506,
    "address": "愛媛県伊予郡砥部町高市1105番地",
    "facilityType": "学校",
    "availableHours": "利用時間不明",
    "indoor": true,
    "verified": false,
    "photo": "",
    "note": "校舎玄関",
    "sourceUrl": "https://www.town.tobe.ehime.jp/soshikikarasagasu/soumuka/bousai/642.html",
    "lastChecked": "2026-05-27"
  },
  {
    "id": "aed-tobe-008",
    "type": "aed",
    "name": "砥部中学校",
    "municipality": "砥部町",
    "lat": 33.744061,
    "lng": 132.799393,
    "address": "愛媛県伊予郡砥部町千足68番地",
    "facilityType": "学校",
    "availableHours": "利用時間不明",
    "indoor": true,
    "verified": false,
    "photo": "",
    "note": "生徒用玄関、職員室",
    "sourceUrl": "https://www.town.tobe.ehime.jp/soshikikarasagasu/soumuka/bousai/642.html",
    "lastChecked": "2026-05-27"
  },
  {
    "id": "aed-tobe-009",
    "type": "aed",
    "name": "松山南高校砥部分校",
    "municipality": "砥部町",
    "lat": 33.735695,
    "lng": 132.803116,
    "address": "愛媛県伊予郡砥部町岩谷口7番地",
    "facilityType": "学校",
    "availableHours": "利用時間不明",
    "indoor": null,
    "verified": false,
    "photo": "",
    "note": "",
    "sourceUrl": "https://www.town.tobe.ehime.jp/soshikikarasagasu/soumuka/bousai/642.html",
    "lastChecked": "2026-05-27"
  },
  {
    "id": "aed-tobe-010",
    "type": "aed",
    "name": "麻生保育所",
    "municipality": "砥部町",
    "lat": 33.776672,
    "lng": 132.78833,
    "address": "愛媛県伊予郡砥部町麻生216番地",
    "facilityType": "保育施設",
    "availableHours": "利用時間不明",
    "indoor": true,
    "verified": false,
    "photo": "",
    "note": "廊下",
    "sourceUrl": "https://www.town.tobe.ehime.jp/soshikikarasagasu/soumuka/bousai/642.html",
    "lastChecked": "2026-05-27"
  },
  {
    "id": "aed-tobe-011",
    "type": "aed",
    "name": "老人福祉センター",
    "municipality": "砥部町",
    "lat": 33.727814,
    "lng": 132.78952,
    "address": "愛媛県伊予郡砥部町大南719番地",
    "facilityType": "公共施設",
    "availableHours": "利用時間不明",
    "indoor": true,
    "verified": false,
    "photo": "",
    "note": "2階集会室前",
    "sourceUrl": "https://www.town.tobe.ehime.jp/soshikikarasagasu/soumuka/bousai/642.html",
    "lastChecked": "2026-05-27"
  },
  {
    "id": "aed-tobe-012",
    "type": "aed",
    "name": "坂村真民記念館",
    "municipality": "砥部町",
    "lat": 33.727814,
    "lng": 132.78952,
    "address": "愛媛県伊予郡砥部町大南705番地",
    "facilityType": "公共施設",
    "availableHours": "利用時間不明",
    "indoor": true,
    "verified": false,
    "photo": "",
    "note": "玄関",
    "sourceUrl": "https://www.town.tobe.ehime.jp/soshikikarasagasu/soumuka/bousai/642.html",
    "lastChecked": "2026-05-27"
  }
]
